{ "type": "FeatureCollection", "features": [
  {
 "type": "Feature",
 "geometry": {
  "type": "Point",
  "coordinates": [-78.5319,-5.639]
  },
  "properties": {
  "name": "Bagua"
  }
  },
{
 "type": "Feature",
 "geometry": {
  "type": "Point",
  "coordinates": [-77.7982,-5.90411]
  },
  "properties": {
  "name": "Jumbilla"
  }
  },
{
 "type": "Feature",
 "geometry": {
  "type": "Point",
  "coordinates": [-77.8726,-6.22912]
  },
  "properties": {
  "name": "Chachapoyas"
  }
  },
{
 "type": "Feature",
 "geometry": {
  "type": "Point",
  "coordinates": [-77.8626,-4.59694]
  },
  "properties": {
  "name": "Santa María de Nievas"
  }
  },
{
 "type": "Feature",
 "geometry": {
  "type": "Point",
  "coordinates": [-77.9448,-6.16467]
  },
  "properties": {
  "name": "Lámud"
  }
  },
{
 "type": "Feature",
 "geometry": {
  "type": "Point",
  "coordinates": [-77.4807,-6.39698]
  },
  "properties": {
  "name": "Mendoza"
  }
  },
{
 "type": "Feature",
 "geometry": {
  "type": "Point",
  "coordinates": [-78.4419,-5.75448]
  },
  "properties": {
  "name": "Bagua Grande"
  }
  },
{
 "type": "Feature",
 "geometry": {
  "type": "Point",
  "coordinates": [-77.6108,-9.78022]
  },
  "properties": {
  "name": "Aija"
  }
  },
{
 "type": "Feature",
 "geometry": {
  "type": "Point",
  "coordinates": [-77.0168,-9.10104]
  },
  "properties": {
  "name": "Llamellín"
  }
  },
{
 "type": "Feature",
 "geometry": {
  "type": "Point",
  "coordinates": [-77.3665,-9.16296]
  },
  "properties": {
  "name": "Chacas"
  }
  },
{
 "type": "Feature",
 "geometry": {
  "type": "Point",
  "coordinates": [-77.1571,-10.1512]
  },
  "properties": {
  "name": "Chiquián"
  }
  },
{
 "type": "Feature",
 "geometry": {
  "type": "Point",
  "coordinates": [-77.6462,-9.28176]
  },
  "properties": {
  "name": "Carhuaz"
  }
  },
{
 "type": "Feature",
 "geometry": {
  "type": "Point",
  "coordinates": [-77.3287,-9.09485]
  },
  "properties": {
  "name": "San Luis"
  }
  },
{
 "type": "Feature",
 "geometry": {
  "type": "Point",
  "coordinates": [-78.3056,-9.47598]
  },
  "properties": {
  "name": "Casma"
  }
  },
{
 "type": "Feature",
 "geometry": {
  "type": "Point",
  "coordinates": [-77.329,-9.09527]
  },
  "properties": {
  "name": "Corongo"
  }
  },
{
 "type": "Feature",
 "geometry": {
  "type": "Point",
  "coordinates": [-77.5289,-9.53008]
  },
  "properties": {
  "name": "Huaraz"
  }
  },
{
 "type": "Feature",
 "geometry": {
  "type": "Point",
  "coordinates": [-77.1733,-9.34955]
  },
  "properties": {
  "name": "Huari"
  }
  },
{
 "type": "Feature",
 "geometry": {
  "type": "Point",
  "coordinates": [-78.1522,-10.0688]
  },
  "properties": {
  "name": "Huarmey"
  }
  },
{
 "type": "Feature",
 "geometry": {
  "type": "Point",
  "coordinates": [-77.81,-9.04853]
  },
  "properties": {
  "name": "Caraz"
  }
  },
{
 "type": "Feature",
 "geometry": {
  "type": "Point",
  "coordinates": [-77.3575,-8.86539]
  },
  "properties": {
  "name": "Piscobamba"
  }
  },
{
 "type": "Feature",
 "geometry": {
  "type": "Point",
  "coordinates": [-77.3969,-10.4039]
  },
  "properties": {
  "name": "Ocros"
  }
  },
{
 "type": "Feature",
 "geometry": {
  "type": "Point",
  "coordinates": [-78.0091,-8.39289]
  },
  "properties": {
  "name": "Cabana"
  }
  },
{
 "type": "Feature",
 "geometry": {
  "type": "Point",
  "coordinates": [-77.4604,-8.82053]
  },
  "properties": {
  "name": "Pomabamba"
  }
  },
{
 "type": "Feature",
 "geometry": {
  "type": "Point",
  "coordinates": [-77.4561,-9.72206]
  },
  "properties": {
  "name": "Recuay"
  }
  },
{
 "type": "Feature",
 "geometry": {
  "type": "Point",
  "coordinates": [-78.5936,-9.07455]
  },
  "properties": {
  "name": "Chimbote"
  }
  },
{
 "type": "Feature",
 "geometry": {
  "type": "Point",
  "coordinates": [-77.6306,-8.55586]
  },
  "properties": {
  "name": "Sihuas"
  }
  },
{
 "type": "Feature",
 "geometry": {
  "type": "Point",
  "coordinates": [-77.6307,-8.55565]
  },
  "properties": {
  "name": "Yungay"
  }
  },
{
 "type": "Feature",
 "geometry": {
  "type": "Point",
  "coordinates": [-72.8789,-13.6373]
  },
  "properties": {
  "name": "Abancay"
  }
  },
{
 "type": "Feature",
 "geometry": {
  "type": "Point",
  "coordinates": [-73.39,-13.6564]
  },
  "properties": {
  "name": "Andahuaylas"
  }
  },
{
 "type": "Feature",
 "geometry": {
  "type": "Point",
  "coordinates": [-72.8775,-14.3649]
  },
  "properties": {
  "name": "Antabamba"
  }
  },
{
 "type": "Feature",
 "geometry": {
  "type": "Point",
  "coordinates": [-73.2441,-14.2947]
  },
  "properties": {
  "name": "Chalhuanca"
  }
  },
{
 "type": "Feature",
 "geometry": {
  "type": "Point",
  "coordinates": [-73.7235,-13.518]
  },
  "properties": {
  "name": "Chincheros"
  }
  },
{
 "type": "Feature",
 "geometry": {
  "type": "Point",
  "coordinates": [-72.1744,-13.9463]
  },
  "properties": {
  "name": "Tambobamba"
  }
  },
{
 "type": "Feature",
 "geometry": {
  "type": "Point",
  "coordinates": [-72.7076,-14.1053]
  },
  "properties": {
  "name": "Chuquibambilla"
  }
  },
{
 "type": "Feature",
 "geometry": {
  "type": "Point",
  "coordinates": [-71.5369,-16.3988]
  },
  "properties": {
  "name": "Arequipa"
  }
  },
{
 "type": "Feature",
 "geometry": {
  "type": "Point",
  "coordinates": [-72.7116,-16.6249]
  },
  "properties": {
  "name": "Camaná"
  }
  },
{
 "type": "Feature",
 "geometry": {
  "type": "Point",
  "coordinates": [-73.3655,-15.7722]
  },
  "properties": {
  "name": "Caravelí"
  }
  },
{
 "type": "Feature",
 "geometry": {
  "type": "Point",
  "coordinates": [-72.4921,-16.0765]
  },
  "properties": {
  "name": "Aplao"
  }
  },
{
 "type": "Feature",
 "geometry": {
  "type": "Point",
  "coordinates": [-71.6021,-15.6367]
  },
  "properties": {
  "name": "Chivay"
  }
  },
{
 "type": "Feature",
 "geometry": {
  "type": "Point",
  "coordinates": [-72.6515,-15.8392]
  },
  "properties": {
  "name": "Chuquibamba"
  }
  },
{
 "type": "Feature",
 "geometry": {
  "type": "Point",
  "coordinates": [-72.0148,-17.0304]
  },
  "properties": {
  "name": "Mollendo"
  }
  },
{
 "type": "Feature",
 "geometry": {
  "type": "Point",
  "coordinates": [-72.8928,-15.2106]
  },
  "properties": {
  "name": "Cotahuasi"
  }
  },
{
 "type": "Feature",
 "geometry": {
  "type": "Point",
  "coordinates": [-74.1436,-13.6294]
  },
  "properties": {
  "name": "Cangallo"
  }
  },
{
 "type": "Feature",
 "geometry": {
  "type": "Point",
  "coordinates": [-74.2258,-13.1604]
  },
  "properties": {
  "name": "Ayacucho"
  }
  },
{
 "type": "Feature",
 "geometry": {
  "type": "Point",
  "coordinates": [-74.334,-13.92]
  },
  "properties": {
  "name": "Huanca Sancos"
  }
  },
{
 "type": "Feature",
 "geometry": {
  "type": "Point",
  "coordinates": [-74.2476,-12.9386]
  },
  "properties": {
  "name": "Huanta"
  }
  },
{
 "type": "Feature",
 "geometry": {
  "type": "Point",
  "coordinates": [-73.9811,-13.0126]
  },
  "properties": {
  "name": "San Miguel"
  }
  },
{
 "type": "Feature",
 "geometry": {
  "type": "Point",
  "coordinates": [-74.1242,-14.694]
  },
  "properties": {
  "name": "Puquio"
  }
  },
{
 "type": "Feature",
 "geometry": {
  "type": "Point",
  "coordinates": [-73.78,-15.017]
  },
  "properties": {
  "name": "Coracora"
  }
  },
{
 "type": "Feature",
 "geometry": {
  "type": "Point",
  "coordinates": [-73.3444,-15.2789]
  },
  "properties": {
  "name": "Pausa"
  }
  },
{
 "type": "Feature",
 "geometry": {
  "type": "Point",
  "coordinates": [-73.8388,-14.0113]
  },
  "properties": {
  "name": "Querobamba"
  }
  },
{
 "type": "Feature",
 "geometry": {
  "type": "Point",
  "coordinates": [-74.0664,-13.7526]
  },
  "properties": {
  "name": "Huancapi"
  }
  },
{
 "type": "Feature",
 "geometry": {
  "type": "Point",
  "coordinates": [-73.954,-13.6531]
  },
  "properties": {
  "name": "Vilcashuamán"
  }
  },
{
 "type": "Feature",
 "geometry": {
  "type": "Point",
  "coordinates": [-78.046,-7.62373]
  },
  "properties": {
  "name": "Cajabamba"
  }
  },
{
 "type": "Feature",
 "geometry": {
  "type": "Point",
  "coordinates": [-78.5175,-7.15704]
  },
  "properties": {
  "name": "Cajamarca"
  }
  },
{
 "type": "Feature",
 "geometry": {
  "type": "Point",
  "coordinates": [-78.1455,-6.86551]
  },
  "properties": {
  "name": "Celendín"
  }
  },
{
 "type": "Feature",
 "geometry": {
  "type": "Point",
  "coordinates": [-78.6507,-6.56107]
  },
  "properties": {
  "name": "Chota"
  }
  },
{
 "type": "Feature",
 "geometry": {
  "type": "Point",
  "coordinates": [-78.805,-7.36632]
  },
  "properties": {
  "name": "Contumazá"
  }
  },
{
 "type": "Feature",
 "geometry": {
  "type": "Point",
  "coordinates": [-78.8183,-6.37736]
  },
  "properties": {
  "name": "Cutervo"
  }
  },
{
 "type": "Feature",
 "geometry": {
  "type": "Point",
  "coordinates": [-78.5214,-6.68106]
  },
  "properties": {
  "name": "Bambamarca"
  }
  },
{
 "type": "Feature",
 "geometry": {
  "type": "Point",
  "coordinates": [-78.8077,-5.70876]
  },
  "properties": {
  "name": "Jaén"
  }
  },
{
 "type": "Feature",
 "geometry": {
  "type": "Point",
  "coordinates": [-79.0024,-5.14637]
  },
  "properties": {
  "name": "San Ignacio"
  }
  },
{
 "type": "Feature",
 "geometry": {
  "type": "Point",
  "coordinates": [-78.1697,-7.33565]
  },
  "properties": {
  "name": "San Marcos"
  }
  },
{
 "type": "Feature",
 "geometry": {
  "type": "Point",
  "coordinates": [-78.8514,-7.00035]
  },
  "properties": {
  "name": "San Miguel de Pallaques"
  }
  },
{
 "type": "Feature",
 "geometry": {
  "type": "Point",
  "coordinates": [-78.8208,-7.11278]
  },
  "properties": {
  "name": "San Pablo"
  }
  },
{
 "type": "Feature",
 "geometry": {
  "type": "Point",
  "coordinates": [-78.9363,-6.71175]
  },
  "properties": {
  "name": "Santa Cruz de Succhabamba"
  }
  },
{
 "type": "Feature",
 "geometry": {
  "type": "Point",
  "coordinates": [-77.149,-12.0629]
  },
  "properties": {
  "name": "Callao"
  }
  },
{
 "type": "Feature",
 "geometry": {
  "type": "Point",
  "coordinates": [-71.6833,-13.9193]
  },
  "properties": {
  "name": "Acomayo"
  }
  },
{
 "type": "Feature",
 "geometry": {
  "type": "Point",
  "coordinates": [-72.1114,-13.4794]
  },
  "properties": {
  "name": "Anta"
  }
  },
{
 "type": "Feature",
 "geometry": {
  "type": "Point",
  "coordinates": [-71.9561,-13.3218]
  },
  "properties": {
  "name": "Calca"
  }
  },
{
 "type": "Feature",
 "geometry": {
  "type": "Point",
  "coordinates": [-71.432,-14.2172]
  },
  "properties": {
  "name": "Yanaoca"
  }
  },
{
 "type": "Feature",
 "geometry": {
  "type": "Point",
  "coordinates": [-71.2268,-14.272]
  },
  "properties": {
  "name": "Sicuani"
  }
  },
{
 "type": "Feature",
 "geometry": {
  "type": "Point",
  "coordinates": [-72.0818,-14.4502]
  },
  "properties": {
  "name": "Santo Tomás"
  }
  },
{
 "type": "Feature",
 "geometry": {
  "type": "Point",
  "coordinates": [-71.9788,-13.5168]
  },
  "properties": {
  "name": "Cusco"
  }
  },
{
 "type": "Feature",
 "geometry": {
  "type": "Point",
  "coordinates": [-71.4126,-14.793]
  },
  "properties": {
  "name": "Espinar"
  }
  },
{
 "type": "Feature",
 "geometry": {
  "type": "Point",
  "coordinates": [-72.6929,-12.8634]
  },
  "properties": {
  "name": "Quillabamba"
  }
  },
{
 "type": "Feature",
 "geometry": {
  "type": "Point",
  "coordinates": [-71.8473,-13.7614]
  },
  "properties": {
  "name": "Paruro"
  }
  },
{
 "type": "Feature",
 "geometry": {
  "type": "Point",
  "coordinates": [-71.5969,-13.3173]
  },
  "properties": {
  "name": "Paucartambo"
  }
  },
{
 "type": "Feature",
 "geometry": {
  "type": "Point",
  "coordinates": [-71.623,-13.6856]
  },
  "properties": {
  "name": "Urcos"
  }
  },
{
 "type": "Feature",
 "geometry": {
  "type": "Point",
  "coordinates": [-72.116,-13.3061]
  },
  "properties": {
  "name": "Urubamba"
  }
  },
{
 "type": "Feature",
 "geometry": {
  "type": "Point",
  "coordinates": [-74.5693,-12.8424]
  },
  "properties": {
  "name": "Acobamba"
  }
  },
{
 "type": "Feature",
 "geometry": {
  "type": "Point",
  "coordinates": [-74.7205,-12.9897]
  },
  "properties": {
  "name": "Lircay"
  }
  },
{
 "type": "Feature",
 "geometry": {
  "type": "Point",
  "coordinates": [-75.3191,-13.2834]
  },
  "properties": {
  "name": "Castrovirreyna"
  }
  },
{
 "type": "Feature",
 "geometry": {
  "type": "Point",
  "coordinates": [-74.4316,-12.7374]
  },
  "properties": {
  "name": "Churcampa"
  }
  },
{
 "type": "Feature",
 "geometry": {
  "type": "Point",
  "coordinates": [-74.9731,-12.7872]
  },
  "properties": {
  "name": "Huancavelica"
  }
  },
{
 "type": "Feature",
 "geometry": {
  "type": "Point",
  "coordinates": [-75.3531,-13.6045]
  },
  "properties": {
  "name": "Huaytará"
  }
  },
{
 "type": "Feature",
 "geometry": {
  "type": "Point",
  "coordinates": [-74.8683,-12.3986]
  },
  "properties": {
  "name": "Pampas"
  }
  },
{
 "type": "Feature",
 "geometry": {
  "type": "Point",
  "coordinates": [-76.2045,-10.1293]
  },
  "properties": {
  "name": "Ambo"
  }
  },
{
 "type": "Feature",
 "geometry": {
  "type": "Point",
  "coordinates": [-76.7847,-9.77012]
  },
  "properties": {
  "name": "La Unión"
  }
  },
{
 "type": "Feature",
 "geometry": {
  "type": "Point",
  "coordinates": [-76.8367,-9.0953]
  },
  "properties": {
  "name": "Huacaybamba"
  }
  },
{
 "type": "Feature",
 "geometry": {
  "type": "Point",
  "coordinates": [-76.8156,-9.55036]
  },
  "properties": {
  "name": "Llata"
  }
  },
{
 "type": "Feature",
 "geometry": {
  "type": "Point",
  "coordinates": [-76.2397,-9.92947]
  },
  "properties": {
  "name": "Huánuco"
  }
  },
{
 "type": "Feature",
 "geometry": {
  "type": "Point",
  "coordinates": [-76.582,-10.0336]
  },
  "properties": {
  "name": "Jesús"
  }
  },
{
 "type": "Feature",
 "geometry": {
  "type": "Point",
  "coordinates": [-76.0003,-9.29841]
  },
  "properties": {
  "name": "Tingo María"
  }
  },
{
 "type": "Feature",
 "geometry": {
  "type": "Point",
  "coordinates": [-77.0687,-8.63964]
  },
  "properties": {
  "name": "Huacrachuco"
  }
  },
{
 "type": "Feature",
 "geometry": {
  "type": "Point",
  "coordinates": [-75.9939,-9.89849]
  },
  "properties": {
  "name": "Panao"
  }
  },
{
 "type": "Feature",
 "geometry": {
  "type": "Point",
  "coordinates": [-74.9649,-9.37717]
  },
  "properties": {
  "name": "Puerto Inca"
  }
  },
{
 "type": "Feature",
 "geometry": {
  "type": "Point",
  "coordinates": [-76.5827,-9.78138]
  },
  "properties": {
  "name": "Chavinillo"
  }
  },
{
 "type": "Feature",
 "geometry": {
  "type": "Point",
  "coordinates": [-76.1326,-13.4176]
  },
  "properties": {
  "name": "Chincha Alta"
  }
  },
{
 "type": "Feature",
 "geometry": {
  "type": "Point",
  "coordinates": [-75.7291,-14.064]
  },
  "properties": {
  "name": "Ica"
  }
  },
{
 "type": "Feature",
 "geometry": {
  "type": "Point",
  "coordinates": [-74.9371,-14.8277]
  },
  "properties": {
  "name": "Nazca"
  }
  },
{
 "type": "Feature",
 "geometry": {
  "type": "Point",
  "coordinates": [-75.1852,-14.5337]
  },
  "properties": {
  "name": "Palpa"
  }
  },
{
 "type": "Feature",
 "geometry": {
  "type": "Point",
  "coordinates": [-76.2031,-13.71]
  },
  "properties": {
  "name": "Pisco"
  }
  },
{
 "type": "Feature",
 "geometry": {
  "type": "Point",
  "coordinates": [-75.3351,-11.0623]
  },
  "properties": {
  "name": "La Merced"
  }
  },
{
 "type": "Feature",
 "geometry": {
  "type": "Point",
  "coordinates": [-75.2877,-12.0618]
  },
  "properties": {
  "name": "Chupaca"
  }
  },
{
 "type": "Feature",
 "geometry": {
  "type": "Point",
  "coordinates": [-75.3129,-11.9186]
  },
  "properties": {
  "name": "Concepción"
  }
  },
{
 "type": "Feature",
 "geometry": {
  "type": "Point",
  "coordinates": [-75.2101,-12.0681]
  },
  "properties": {
  "name": "Huancayo"
  }
  },
{
 "type": "Feature",
 "geometry": {
  "type": "Point",
  "coordinates": [-75.5,-11.7753]
  },
  "properties": {
  "name": "Jauja"
  }
  },
{
 "type": "Feature",
 "geometry": {
  "type": "Point",
  "coordinates": [-75.9982,-11.1616]
  },
  "properties": {
  "name": "Junín"
  }
  },
{
 "type": "Feature",
 "geometry": {
  "type": "Point",
  "coordinates": [-74.6366,-11.254]
  },
  "properties": {
  "name": "Satipo"
  }
  },
{
 "type": "Feature",
 "geometry": {
  "type": "Point",
  "coordinates": [-75.6876,-11.4201]
  },
  "properties": {
  "name": "Tarma"
  }
  },
{
 "type": "Feature",
 "geometry": {
  "type": "Point",
  "coordinates": [-75.8999,-11.5163]
  },
  "properties": {
  "name": "La Oroya"
  }
  },
{
 "type": "Feature",
 "geometry": {
  "type": "Point",
  "coordinates": [-79.1074,-7.71383]
  },
  "properties": {
  "name": "Ascope"
  }
  },
{
 "type": "Feature",
 "geometry": {
  "type": "Point",
  "coordinates": [-77.7012,-7.15406]
  },
  "properties": {
  "name": "Bolívar"
  }
  },
{
 "type": "Feature",
 "geometry": {
  "type": "Point",
  "coordinates": [-79.4298,-7.22718]
  },
  "properties": {
  "name": "Chepén"
  }
  },
{
 "type": "Feature",
 "geometry": {
  "type": "Point",
  "coordinates": [-78.8194,-7.47948]
  },
  "properties": {
  "name": "Cascas"
  }
  },
{
 "type": "Feature",
 "geometry": {
  "type": "Point",
  "coordinates": [-78.4867,-8.04261]
  },
  "properties": {
  "name": "Julcán"
  }
  },
{
 "type": "Feature",
 "geometry": {
  "type": "Point",
  "coordinates": [-78.5656,-7.90254]
  },
  "properties": {
  "name": "Otuzco"
  }
  },
{
 "type": "Feature",
 "geometry": {
  "type": "Point",
  "coordinates": [-79.5043,-7.43199]
  },
  "properties": {
  "name": "San Pedro de Lloc"
  }
  },
{
 "type": "Feature",
 "geometry": {
  "type": "Point",
  "coordinates": [-77.2965,-8.27731]
  },
  "properties": {
  "name": "Tayabamba"
  }
  },
{
 "type": "Feature",
 "geometry": {
  "type": "Point",
  "coordinates": [-78.0488,-7.81209]
  },
  "properties": {
  "name": "Huamachuco"
  }
  },
{
 "type": "Feature",
 "geometry": {
  "type": "Point",
  "coordinates": [-78.1771,-8.15308]
  },
  "properties": {
  "name": "Santiago de Chuco"
  }
  },
{
 "type": "Feature",
 "geometry": {
  "type": "Point",
  "coordinates": [-79.0287,-8.11185]
  },
  "properties": {
  "name": "Trujillo"
  }
  },
{
 "type": "Feature",
 "geometry": {
  "type": "Point",
  "coordinates": [-78.7524,-8.41434]
  },
  "properties": {
  "name": "Virú"
  }
  },
{
 "type": "Feature",
 "geometry": {
  "type": "Point",
  "coordinates": [-79.835,-6.76034]
  },
  "properties": {
  "name": "Chiclayo"
  }
  },
{
 "type": "Feature",
 "geometry": {
  "type": "Point",
  "coordinates": [-79.788,-6.63918]
  },
  "properties": {
  "name": "Ferreñafe"
  }
  },
{
 "type": "Feature",
 "geometry": {
  "type": "Point",
  "coordinates": [-79.9062,-6.70408]
  },
  "properties": {
  "name": "Lambayeque"
  }
  },
{
 "type": "Feature",
 "geometry": {
  "type": "Point",
  "coordinates": [-77.7608,-10.7541]
  },
  "properties": {
  "name": "Barranca"
  }
  },
{
 "type": "Feature",
 "geometry": {
  "type": "Point",
  "coordinates": [-76.9928,-10.473]
  },
  "properties": {
  "name": "Cajatambo"
  }
  },
{
 "type": "Feature",
 "geometry": {
  "type": "Point",
  "coordinates": [-76.3874,-13.0778]
  },
  "properties": {
  "name": "San Vicente de Cañete"
  }
  },
{
 "type": "Feature",
 "geometry": {
  "type": "Point",
  "coordinates": [-76.6247,-11.467]
  },
  "properties": {
  "name": "Canta"
  }
  },
{
 "type": "Feature",
 "geometry": {
  "type": "Point",
  "coordinates": [-77.2072,-11.4954]
  },
  "properties": {
  "name": "Huaral"
  }
  },
{
 "type": "Feature",
 "geometry": {
  "type": "Point",
  "coordinates": [-76.3861,-11.8447]
  },
  "properties": {
  "name": "Matucana"
  }
  },
{
 "type": "Feature",
 "geometry": {
  "type": "Point",
  "coordinates": [-77.6104,-11.1085]
  },
  "properties": {
  "name": "Huacho"
  }
  },
{
 "type": "Feature",
 "geometry": {
  "type": "Point",
  "coordinates": [-77.0307,-12.046]
  },
  "properties": {
  "name": "Lima"
  }
  },
{
 "type": "Feature",
 "geometry": {
  "type": "Point",
  "coordinates": [-76.7732,-10.6681]
  },
  "properties": {
  "name": "Oyón"
  }
  },
{
 "type": "Feature",
 "geometry": {
  "type": "Point",
  "coordinates": [-75.9232,-12.464]
  },
  "properties": {
  "name": "Yauyos"
  }
  },
{
 "type": "Feature",
 "geometry": {
  "type": "Point",
  "coordinates": [-76.1044,-5.89527]
  },
  "properties": {
  "name": "Yurimaguas"
  }
  },
{
 "type": "Feature",
 "geometry": {
  "type": "Point",
  "coordinates": [-76.167,-5.91698]
  },
  "properties": {
  "name": "San Lorenzo"
  }
  },
{
 "type": "Feature",
 "geometry": {
  "type": "Point",
  "coordinates": [-73.579,-4.50812]
  },
  "properties": {
  "name": "Nauta"
  }
  },
{
 "type": "Feature",
 "geometry": {
  "type": "Point",
  "coordinates": [-70.5168,-3.90597]
  },
  "properties": {
  "name": "Caballococha"
  }
  },
{
 "type": "Feature",
 "geometry": {
  "type": "Point",
  "coordinates": [-73.2443,-3.74926]
  },
  "properties": {
  "name": "Iquitos"
  }
  },
{
 "type": "Feature",
 "geometry": {
  "type": "Point",
  "coordinates": [-73.85,-5.06075]
  },
  "properties": {
  "name": "Requena"
  }
  },
{
 "type": "Feature",
 "geometry": {
  "type": "Point",
  "coordinates": [-75.0092,-7.3506]
  },
  "properties": {
  "name": "Contamana"
  }
  },
{
 "type": "Feature",
 "geometry": {
  "type": "Point",
  "coordinates": [-71.3609,-12.8364]
  },
  "properties": {
  "name": "Salvación"
  }
  },
{
 "type": "Feature",
 "geometry": {
  "type": "Point",
  "coordinates": [-69.5773,-10.945]
  },
  "properties": {
  "name": "Iñapari"
  }
  },
{
 "type": "Feature",
 "geometry": {
  "type": "Point",
  "coordinates": [-69.1766,-12.5943]
  },
  "properties": {
  "name": "Puerto Maldonado"
  }
  },
{
 "type": "Feature",
 "geometry": {
  "type": "Point",
  "coordinates": [-70.9705,-16.6752]
  },
  "properties": {
  "name": "Omate"
  }
  },
{
 "type": "Feature",
 "geometry": {
  "type": "Point",
  "coordinates": [-71.3453,-17.6459]
  },
  "properties": {
  "name": "Ilo"
  }
  },
{
 "type": "Feature",
 "geometry": {
  "type": "Point",
  "coordinates": [-70.9347,-17.1938]
  },
  "properties": {
  "name": "Moquegua"
  }
  },
{
 "type": "Feature",
 "geometry": {
  "type": "Point",
  "coordinates": [-76.5144,-10.4915]
  },
  "properties": {
  "name": "Yanahuanca"
  }
  },
{
 "type": "Feature",
 "geometry": {
  "type": "Point",
  "coordinates": [-75.403,-10.576]
  },
  "properties": {
  "name": "Oxapampa"
  }
  },
{
 "type": "Feature",
 "geometry": {
  "type": "Point",
  "coordinates": [-76.2567,-10.6837]
  },
  "properties": {
  "name": "Cerro de Pasco"
  }
  },
{
 "type": "Feature",
 "geometry": {
  "type": "Point",
  "coordinates": [-79.7143,-4.63907]
  },
  "properties": {
  "name": "Ayabaca"
  }
  },
{
 "type": "Feature",
 "geometry": {
  "type": "Point",
  "coordinates": [-79.4506,-5.23924]
  },
  "properties": {
  "name": "Huancabamba"
  }
  },
{
 "type": "Feature",
 "geometry": {
  "type": "Point",
  "coordinates": [-80.1609,-5.09654]
  },
  "properties": {
  "name": "Chulucanas"
  }
  },
{
 "type": "Feature",
 "geometry": {
  "type": "Point",
  "coordinates": [-81.1137,-5.08511]
  },
  "properties": {
  "name": "Paita"
  }
  },
{
 "type": "Feature",
 "geometry": {
  "type": "Point",
  "coordinates": [-80.6267,-5.19711]
  },
  "properties": {
  "name": "Piura"
  }
  },
{
 "type": "Feature",
 "geometry": {
  "type": "Point",
  "coordinates": [-80.8223,-5.55754]
  },
  "properties": {
  "name": "Sechura"
  }
  },
{
 "type": "Feature",
 "geometry": {
  "type": "Point",
  "coordinates": [-80.6874,-4.8901]
  },
  "properties": {
  "name": "Sullana"
  }
  },
{
 "type": "Feature",
 "geometry": {
  "type": "Point",
  "coordinates": [-81.2718,-4.57985]
  },
  "properties": {
  "name": "Talara"
  }
  },
{
 "type": "Feature",
 "geometry": {
  "type": "Point",
  "coordinates": [-70.1956,-14.9096]
  },
  "properties": {
  "name": "Azángaro"
  }
  },
{
 "type": "Feature",
 "geometry": {
  "type": "Point",
  "coordinates": [-70.434,-14.0681]
  },
  "properties": {
  "name": "Macusani"
  }
  },
{
 "type": "Feature",
 "geometry": {
  "type": "Point",
  "coordinates": [-69.4592,-16.2133]
  },
  "properties": {
  "name": "Juli"
  }
  },
{
 "type": "Feature",
 "geometry": {
  "type": "Point",
  "coordinates": [-69.6386,-16.0868]
  },
  "properties": {
  "name": "Ilave"
  }
  },
{
 "type": "Feature",
 "geometry": {
  "type": "Point",
  "coordinates": [-69.7612,-15.2019]
  },
  "properties": {
  "name": "Huancané"
  }
  },
{
 "type": "Feature",
 "geometry": {
  "type": "Point",
  "coordinates": [-70.3666,-15.3644]
  },
  "properties": {
  "name": "Lampa"
  }
  },
{
 "type": "Feature",
 "geometry": {
  "type": "Point",
  "coordinates": [-70.5901,-14.8819]
  },
  "properties": {
  "name": "Ayaviri"
  }
  },
{
 "type": "Feature",
 "geometry": {
  "type": "Point",
  "coordinates": [-69.4999,-15.3608]
  },
  "properties": {
  "name": "Moho"
  }
  },
{
 "type": "Feature",
 "geometry": {
  "type": "Point",
  "coordinates": [-70.0279,-15.8406]
  },
  "properties": {
  "name": "Puno"
  }
  },
{
 "type": "Feature",
 "geometry": {
  "type": "Point",
  "coordinates": [-69.8685,-14.9142]
  },
  "properties": {
  "name": "Putina"
  }
  },
{
 "type": "Feature",
 "geometry": {
  "type": "Point",
  "coordinates": [-70.1315,-15.4964]
  },
  "properties": {
  "name": "Juliaca"
  }
  },
{
 "type": "Feature",
 "geometry": {
  "type": "Point",
  "coordinates": [-69.4343,-14.2364]
  },
  "properties": {
  "name": "Sandia"
  }
  },
{
 "type": "Feature",
 "geometry": {
  "type": "Point",
  "coordinates": [-69.0928,-16.2442]
  },
  "properties": {
  "name": "Yunguyo"
  }
  },
{
 "type": "Feature",
 "geometry": {
  "type": "Point",
  "coordinates": [-76.5848,-7.06685]
  },
  "properties": {
  "name": "Bellavista"
  }
  },
{
 "type": "Feature",
 "geometry": {
  "type": "Point",
  "coordinates": [-76.6949,-6.61379]
  },
  "properties": {
  "name": "San José de Sisa"
  }
  },
{
 "type": "Feature",
 "geometry": {
  "type": "Point",
  "coordinates": [-76.7718,-6.93639]
  },
  "properties": {
  "name": "Saposoa"
  }
  },
{
 "type": "Feature",
 "geometry": {
  "type": "Point",
  "coordinates": [-76.5161,-6.42186]
  },
  "properties": {
  "name": "Lamas"
  }
  },
{
 "type": "Feature",
 "geometry": {
  "type": "Point",
  "coordinates": [-76.7264,-7.18039]
  },
  "properties": {
  "name": "Juanjuí"
  }
  },
{
 "type": "Feature",
 "geometry": {
  "type": "Point",
  "coordinates": [-76.9747,-6.03473]
  },
  "properties": {
  "name": "Moyobamba"
  }
  },
{
 "type": "Feature",
 "geometry": {
  "type": "Point",
  "coordinates": [-76.3303,-6.92069]
  },
  "properties": {
  "name": "Picota"
  }
  },
{
 "type": "Feature",
 "geometry": {
  "type": "Point",
  "coordinates": [-77.1684,-6.06112]
  },
  "properties": {
  "name": "Rioja"
  }
  },
{
 "type": "Feature",
 "geometry": {
  "type": "Point",
  "coordinates": [-76.3599,-6.48776]
  },
  "properties": {
  "name": "Tarapoto"
  }
  },
{
 "type": "Feature",
 "geometry": {
  "type": "Point",
  "coordinates": [-76.5102,-8.18871]
  },
  "properties": {
  "name": "Tocache"
  }
  },
{
 "type": "Feature",
 "geometry": {
  "type": "Point",
  "coordinates": [-70.2504,-17.2682]
  },
  "properties": {
  "name": "Candarave"
  }
  },
{
 "type": "Feature",
 "geometry": {
  "type": "Point",
  "coordinates": [-70.7624,-17.6139]
  },
  "properties": {
  "name": "Locumba"
  }
  },
{
 "type": "Feature",
 "geometry": {
  "type": "Point",
  "coordinates": [-70.2509,-18.0138]
  },
  "properties": {
  "name": "Tacna"
  }
  },
{
 "type": "Feature",
 "geometry": {
  "type": "Point",
  "coordinates": [-70.0321,-17.4748]
  },
  "properties": {
  "name": "Tarata"
  }
  },
{
 "type": "Feature",
 "geometry": {
  "type": "Point",
  "coordinates": [-77.0666,-12.0666]
  },
  "properties": {
  "name": "Zorritos"
  }
  },
{
 "type": "Feature",
 "geometry": {
  "type": "Point",
  "coordinates": [-80.4596,-3.57075]
  },
  "properties": {
  "name": "Tumbes"
  }
  },
{
 "type": "Feature",
 "geometry": {
  "type": "Point",
  "coordinates": [-80.2751,-3.50074]
  },
  "properties": {
  "name": "Zarumilla"
  }
  },
{
 "type": "Feature",
 "geometry": {
  "type": "Point",
  "coordinates": [-73.7548,-10.7297]
  },
  "properties": {
  "name": "Atalaya"
  }
  },
{
 "type": "Feature",
 "geometry": {
  "type": "Point",
  "coordinates": [-74.5323,-8.38328]
  },
  "properties": {
  "name": "Pucallpa"
  }
  },
{
 "type": "Feature",
 "geometry": {
  "type": "Point",
  "coordinates": [-70.7099,-9.77266]
  },
  "properties": {
  "name": "Puerto Esperanza"
  }
  },
{
 "type": "Feature",
 "geometry": {
  "type": "Point",
  "coordinates": [-75.5074,-9.0362]
  },
  "properties": {
  "name": "Aguaytia"
  }
  },
{
 "type": "Feature",
 "geometry": {
  "type": "Point",
  "coordinates": [-72.5253,-13.1547]
  },
  "properties": {
  "name": "Aguas Calientes"
  }
  },
{
 "type": "Feature",
 "geometry": {
  "type": "Point",
  "coordinates": [-76.5204,-6.4263]
  },
  "properties": {
  "name": "Barrio Wayku"
  }
  },
{
 "type": "Feature",
 "geometry": {
  "type": "Point",
  "coordinates": [-75.7365,-14.0946]
  },
  "properties": {
  "name": "Cachiche"
  }
  },
{
 "type": "Feature",
 "geometry": {
  "type": "Point",
  "coordinates": [-73.2778,-3.69855]
  },
  "properties": {
  "name": "Padre Cocha"
  }
  },
{
 "type": "Feature",
 "geometry": {
  "type": "Point",
  "coordinates": [-76.2128,-10.0776]
  },
  "properties": {
  "name": "Tomayquichua"
  }
  },
{
 "type": "Feature",
 "geometry": {
  "type": "Point",
  "coordinates": [-71.6716,-15.6637]
  },
  "properties": {
  "name": "Achoma Yunque"
  }
  },
{
 "type": "Feature",
 "geometry": {
  "type": "Point",
  "coordinates": [-76.6966,-11.9378]
  },
  "properties": {
  "name": "Chosica"
  }
  },
{
 "type": "Feature",
 "geometry": {
  "type": "Point",
  "coordinates": [-76.105,-12.9176]
  },
  "properties": {
  "name": "Catapalla"
  }
  },
{
 "type": "Feature",
 "geometry": {
  "type": "Point",
  "coordinates": [-77.0666,-12.0666]
  },
  "properties": {
  "name": "Mancora"
  }
  },
{
 "type": "Feature",
 "geometry": {
  "type": "Point",
  "coordinates": [-77.0666,-12.0666]
  },
  "properties": {
  "name": "Vichayito"
  }
  },
{
 "type": "Feature",
 "geometry": {
  "type": "Point",
  "coordinates": [-77.0666,-12.0666]
  },
  "properties": {
  "name": "Punta Sal"
  }
  }
]}